{"city": "Ahwatukee", "review_count": 3, "name": "McDonald's", "neighborhoods": [], "type": "business", "business_id": "LNdwp-9Isnd6xmBKUz4K_A", "full_address": "10823 S 51st St\nAhwatukee, AZ 85044", "state": "AZ", "longitude": -111.975004, "stars": 2.0, "latitude": 33.348560900000003, "open": true, "categories": ["Burgers", "Fast Food", "Restaurants"]}
{"city": "Anthem", "review_count": 3, "name": "Calvin Klein", "neighborhoods": [], "type": "business", "business_id": "-ZUEwUytc63ZWvgXJz7gHQ", "full_address": "4250 W Anthem Way\nSte 100\nAnthem, AZ 85086", "state": "AZ", "longitude": -112.1502292, "stars": 3.5, "latitude": 33.873871800000003, "open": true, "categories": ["Women's Clothing", "Men's Clothing", "Fashion", "Shopping", "Accessories"]}
{"city": "Anthem", "review_count": 3, "name": "Fox Designs Studio", "neighborhoods": [], "type": "business", "business_id": "NHBfYwGcQk5RUVCbnpWRsg", "full_address": "42104 N Venture Dr\nBldg C-110, Ste 112\nAnthem, AZ 85086", "state": "AZ", "longitude": -112.141987, "stars": 3.5, "latitude": 33.867223000000003, "open": true, "categories": ["Web Design", "Professional Services"]}
{"city": "Apache Junction", "review_count": 3, "name": "Dairy Queen", "neighborhoods": [], "type": "business", "business_id": "zvFhC2Lywo6e8UaRTVj7sw", "full_address": "2290 N Apache Drive\nApache Junction, AZ 85220", "state": "AZ", "longitude": -111.54880900000001, "stars": 3.5, "latitude": 33.435696, "open": true, "categories": ["Restaurants"]}
{"city": "Apache Junction", "review_count": 3, "name": "Mediacom", "neighborhoods": [], "type": "business", "business_id": "tgFTrk5o3_TxwokIlLxOKQ", "full_address": "879 N Plaza Drive\nApache Junction, AZ 85220", "state": "AZ", "longitude": -111.549409, "stars": 1.0, "latitude": 33.42315, "open": true, "categories": ["Professional Services", "Electronics", "Shopping", "Home Services", "Internet Service Providers"]}
{"city": "Apache Junction", "review_count": 3, "name": "Papa Murphy's", "neighborhoods": [], "type": "business", "business_id": "zOayTVSvtaWDt8pWH1N6OQ", "full_address": "2114 W Apache Trl\nApache Junction, AZ 85220", "state": "AZ", "longitude": -111.5689769, "stars": 3.5, "latitude": 33.415350599999996, "open": true, "categories": ["Pizza", "Restaurants"]}